{
  "travelAgency": null,
  "pricingInfo": {
    "total": 251.41,
    "cost": 193.75,
    "discount": 40,
    "spentAwards": "10000 points",
    "currencyCode": "USD",
    "fees": [
      {
        "name": "Tax",
        "charge": 34.56
      },
      {
        "name": "Insurance",
        "charge": 23.1
      }
    ]
  },
  "status": "Confirmed",
  "reservationDate": "2000-01-01T00:00:00",
  "providerInfo": {
    "code": "avis",
    "name": "Avis",
    "accountNumbers": [
      {
        "number": "AVS454545",
        "masked": false
      }
    ],
    "earnedRewards": "50 points"
  },
  "cancellationPolicy": "$50 penalty if cancelled",
  "confirmationNumbers": [
    {
      "number": "1122334455",
      "description": "Confirmation number",
      "isPrimary": true
    },
    {
      "number": "887756",
      "description": "Reference",
      "isPrimary": false
    }
  ],
  "pickup": {
    "address": {
      "text": "Palm Beach Intl Airport,PBI, 2500 Turnage Boulevard, West Palm Beach, FL 33406 US",
      "addressLine": "1000 James L Turnage Boulevard",
      "city": "West Palm Beach",
      "stateName": "Florida",
      "countryName": "United States",
      "postalCode": "33415",
      "lat": 26.6857475,
      "lng": -80.0928165,
      "timezone": -14400
    },
    "localDateTime": "2030-01-01T13:30:00",
    "openingHours": "Sun - Sat open 24 hrs",
    "phone": "+1-13-PICKUP",
    "fax": "+1-14-FAX"
  },
  "dropoff": {
    "address": {
      "text": "Palm Beach Intl Airport,PBI, 2500 Turnage Boulevard, West Palm Beach, FL 33406 US",
      "addressLine": "1000 James L Turnage Boulevard",
      "city": "West Palm Beach",
      "stateName": "Florida",
      "countryName": "United States",
      "postalCode": "33415",
      "lat": 26.6857475,
      "lng": -80.0928165,
      "timezone": -14400
    },
    "localDateTime": "2030-01-05T13:30:00",
    "openingHours": "Sun - Sat open 24 hrs",
    "phone": "+1-13-DROPOFF",
    "fax": "+1-14-FAX"
  },
  "car": {
    "type": "Regular",
    "model": "Ford Edge or similar",
    "imageUrl": "http://car.image/url"
  },
  "discounts": null,
  "driver": {
    "name": "John Doe",
    "full": true
  },
  "pricedEquipment": null,
  "rentalCompany": null,
  "type": "carRental"
}